[{"url":"https://www.bandofboats.com/fr/professionnels/athenian-yachts-enterprises-s-a-athens","name":"ATHENIAN YACHTS ENTERPRISES S.A.","description":"Découvrez notre professionel ATHENIAN YACHTS ENTERPRISES S.A. à ATHENS pour bénéficier d‘un accompagnement complet pour vous et votre bateau.\n\n \n\nATHENIAN YACHTS ENTERPRISES S.A. est également distributeur des marques suivantes : JEANNEAU, LAGOON, PRESTIGE.","address":"1-2 Possidonos Ave.","zipcode":"175 61","city":"ATHENS","country":"Grèce","longitude":"23.6889","latitude":"37.9303","phone":"+302109811820","mail":"sales@athenian-yachts.gr"},{"url":"https://www.bandofboats.com/fr/professionnels/marina-yachting-center-oostende","name":"MARINA YACHTING CENTER","description":"Découvrez notre professionel MARINA YACHTING CENTER à OOSTENDE pour bénéficier d‘un accompagnement complet pour vous et votre bateau.MARINA YACHTING CENTER est également distributeur des marques suivantes : JEANNEAU, PRESTIGE.","address":"Dokter Eduard Moreauxlaan 3","zipcode":"B-08400","city":"OOSTENDE","country":"Belgique","longitude":"2.94406","latitude":"51.243","phone":"+3259320028","mail":"info@marinayachtingcenter.be"},{"url":"https://www.bandofboats.com/fr/professionnels/nautica-viamar-sa-ibiza-baleares-","name":"NAUTICA VIAMAR SA","description":"Découvrez notre professionel NAUTICA VIAMAR SA à IBIZA (BALEARES) pour bénéficier d‘un accompagnement complet pour vous et votre bateau.\n\n \n\nNAUTICA VIAMAR SA est également distributeur des marques suivantes : BENETEAU.","address":"Marina Botafoch, s/n","zipcode":"07800","city":"IBIZA (BALEARES)","country":"Espagne","longitude":"1.44672","latitude":"38.9133","phone":"+34971190211","mail":"comercialviamar@infonegocio.com"}]